{"type": "FeatureCollection", "features": [{"type": "Feature", "geometry": {"type": "Point", "coordinates": [106.689717, 10.81011]}, "properties": {"Address": "139 Nguyễn Văn Đậu", "name": "Trà Sữa Kiupid"}}, {"type": "Feature", "geometry": {"type": "Point", "coordinates": [106.711049, 10.800678]}, "properties": {"Address": "243 Xô Viết Nghệ Tĩnh", "name": "Trà sữa BoBaPop"}}, {"type": "Feature", "geometry": {"type": "Point", "coordinates": [106.713281, 10.829484]}, "properties": {"Address": "13 Đường số 5", "name": "Trà Sữa The Goody Tea"}}, {"type": "Feature", "geometry": {"type": "Point", "coordinates": [106.702716, 10.829109]}, "properties": {"Address": "105 Đặng Thuỳ Trâm", "name": "Trà sữa 60s"}}, {"type": "Feature", "geometry": {"type": "Point", "coordinates": [106.6964, 10.798395]}, "properties": {"Address": "91 Đinh Tiên Hoàng", "name": "Quán Trà Sữa Zoo91"}}, {"type": "Feature", "geometry": {"type": "Point", "coordinates": [106.68813, 10.803982]}, "properties": {"Address": "36 Phan Đăng Lưu", "name": "Trà Sữa TABO Milk Tea & Coffee"}}, {"type": "Feature", "geometry": {"type": "Point", "coordinates": [106.711389, 10.80607]}, "properties": {"Address": "427 Xô Viết Nghệ Tĩnh", "name": "TRÀ SỮA AROMA"}}, {"type": "Feature", "geometry": {"type": "Point", "coordinates": [106.680744, 10.798507]}, "properties": {"Address": "330 Phan Đình Phùng", "name": "Trà Sữa Kem Trứng Cháy A3 Tea Kafe"}}, {"type": "Feature", "geometry": {"type": "Point", "coordinates": [106.714048, 10.81329]}, "properties": {"Address": "685/29d Xô Viết Nghệ Tĩnh", "name": "TRÀ SỮA - ĂN VẶT BUMBA"}}, {"type": "Feature", "geometry": {"type": "Point", "coordinates": [106.689213, 10.820637]}, "properties": {"Address": "627 Lê Quang Định", "name": "Trà Sữa Bobapop"}}, {"type": "Feature", "geometry": {"type": "Point", "coordinates": [106.692352, 10.810065]}, "properties": {"Address": "263 Lê Quang Định", "name": "GUTEA.VN - Trà sữa nhà làm"}}, {"type": "Feature", "geometry": {"type": "Point", "coordinates": [106.68616, 10.82434]}, "properties": {"Address": "41 Đường Nguyễn Văn Nghi", "name": "Trà Sữa May Cha Gò Vấp"}}, {"type": "Feature", "geometry": {"type": "Point", "coordinates": [106.696356, 10.812384]}, "properties": {"Address": "170V Nơ Trang Long, phường 12, Quận Bình Thạnh, Tp. Hồ Chí Minh", "name": "Trà sữa Manga"}}, {"type": "Feature", "geometry": {"type": "Point", "coordinates": [106.710581, 10.812025]}, "properties": {"Address": "77 Nguyễn Xí", "name": "Quán Trà Sữa Trà Thảo Mộc B&B"}}, {"type": "Feature", "geometry": {"type": "Point", "coordinates": [106.710879, 10.810078]}, "properties": {"Address": "549 14/21", "name": "Trà sữa CHITZ"}}, {"type": "Feature", "geometry": {"type": "Point", "coordinates": [106.68478, 10.801713]}, "properties": {"Address": "94A2 Phùng Văn Cung", "name": "Trà sữa Sóng Sánh"}}, {"type": "Feature", "geometry": {"type": "Point", "coordinates": [106.684951, 10.816989]}, "properties": {"Address": "301 Phạm Văn Đồng", "name": "Trà sữa Royaltea"}}, {"type": "Feature", "geometry": {"type": "Point", "coordinates": [106.677965, 10.799738]}, "properties": {"Address": "57 Trần Khắc Chân", "name": "Chang Chang Milk Tea 2"}}, {"type": "Feature", "geometry": {"type": "Point", "coordinates": [106.689023, 10.809145]}, "properties": {"Address": "156 Nguyễn Văn Đậu", "name": "Trà sữa Bobapop - Nguyễn Văn Đậu"}}, {"type": "Feature", "geometry": {"type": "Point", "coordinates": [106.709161, 10.813185]}, "properties": {"Address": "Đường số 4", "name": "Trà sữa Mix"}}]}